[
  {
    "id": "a1b2c3d4-0001-4000-8000-000000000001",
    "lat": 41.2995,
    "lon": 69.2401,
    "title": "Туалет у фонтана на площади Мустакиллик",
    "description": "Общественный туалет рядом с главным фонтаном площади Независимости",
    "photo": "",
    "isOpen": true,
    "isFree": false,
    "hasSoap": true,
    "hasPaper": true,
    "isAccessible": true,
    "isTaharatkhana": false,
    "addedBy": "81341bf4-3f84-4fdb-8fe0-0f69a6f25823",
    "createdAt": "2026-07-07T10:00:00.000Z"
  },
  {
    "id": "a1b2c3d4-0002-4000-8000-000000000002",
    "lat": 41.3111,
    "lon": 69.2797,
    "title": "Туалет в парке Навои",
    "description": "Туалет внутри парка имени Алишера Навои, рядом с центральным входом",
    "photo": "",
    "isOpen": true,
    "isFree": true,
    "hasSoap": false,
    "hasPaper": true,
    "isAccessible": false,
    "isTaharatkhana": false,
    "addedBy": "81341bf4-3f84-4fdb-8fe0-0f69a6f25823",
    "createdAt": "2026-07-07T10:05:00.000Z"
  },
  {
    "id": "a1b2c3d4-0003-4000-8000-000000000003",
    "lat": 41.3003,
    "lon": 69.2621,
    "title": "Туалет у Чорсу базара",
    "description": "Платный общественный туалет у главного входа на рынок Чорсу",
    "photo": "",
    "isOpen": true,
    "isFree": false,
    "hasSoap": true,
    "hasPaper": true,
    "isAccessible": false,
    "isTaharatkhana": true,
    "addedBy": "81341bf4-3f84-4fdb-8fe0-0f69a6f25823",
    "createdAt": "2026-07-07T10:10:00.000Z"
  },
  {
    "id": "a1b2c3d4-0004-4000-8000-000000000004",
    "lat": 41.2833,
    "lon": 69.2167,
    "title": "Туалет в ТРЦ Samarqand Darvoza",
    "description": "Бесплатный туалет на 1-м этаже торгового центра Самарканд Дарвоза",
    "photo": "",
    "isOpen": true,
    "isFree": true,
    "hasSoap": true,
    "hasPaper": true,
    "isAccessible": true,
    "isTaharatkhana": false,
    "addedBy": "81341bf4-3f84-4fdb-8fe0-0f69a6f25823",
    "createdAt": "2026-07-07T10:15:00.000Z"
  },
  {
    "id": "a1b2c3d4-0005-4000-8000-000000000005",
    "lat": 41.3210,
    "lon": 69.2870,
    "title": "Туалет на станции метро Мирзо Улугбек",
    "description": "Общественный туалет в переходе у станции метро Мирзо Улугбек",
    "photo": "",
    "isOpen": true,
    "isFree": false,
    "hasSoap": true,
    "hasPaper": false,
    "isAccessible": false,
    "isTaharatkhana": false,
    "addedBy": "81341bf4-3f84-4fdb-8fe0-0f69a6f25823",
    "createdAt": "2026-07-07T10:20:00.000Z"
  }
]
