[
  {
    "id": "seed-0001-tashkent-city-mall",
    "lat": 41.2956,
    "lon": 69.2797,
    "title": "Туалет в Tashkent City Mall",
    "description": "Чистый туалет на 1-м этаже ТРЦ Tashkent City Mall, рядом с фуд-кортом",
    "photo": "",
    "isOpen": true,
    "isFree": true,
    "hasSoap": true,
    "hasPaper": true,
    "isAccessible": true,
    "isTaharatkhana": false,
    "addedBy": "system",
    "createdAt": "2026-07-07T10:00:00.000Z"
  },
  {
    "id": "seed-0002-masjid-minor",
    "lat": 41.2871,
    "lon": 69.2768,
    "title": "Тахаратхана у мечети Минор",
    "description": "Место для омовения при мечети Минор. Горячая вода, мыло, тапочки",
    "photo": "",
    "isOpen": true,
    "isFree": true,
    "hasSoap": true,
    "hasPaper": false,
    "isAccessible": false,
    "isTaharatkhana": true,
    "addedBy": "system",
    "createdAt": "2026-07-07T10:01:00.000Z"
  },
  {
    "id": "seed-0003-railway-station",
    "lat": 41.3174,
    "lon": 69.2870,
    "title": "Туалет на вокзале Ташкент-Главный",
    "description": "Платный туалет в здании главного железнодорожного вокзала",
    "photo": "",
    "isOpen": false,
    "isFree": false,
    "hasSoap": true,
    "hasPaper": true,
    "isAccessible": true,
    "isTaharatkhana": false,
    "addedBy": "system",
    "createdAt": "2026-07-07T10:02:00.000Z"
  },
  {
    "id": "seed-0004-navoi-park",
    "lat": 41.3058,
    "lon": 69.2714,
    "title": "Туалет в парке Алишера Навои",
    "description": "Общественный туалет в центральной части парка Навои",
    "photo": "",
    "isOpen": false,
    "isFree": true,
    "hasSoap": false,
    "hasPaper": true,
    "isAccessible": false,
    "isTaharatkhana": false,
    "addedBy": "system",
    "createdAt": "2026-07-07T10:03:00.000Z"
  },
  {
    "id": "seed-0005-khastimom",
    "lat": 41.3276,
    "lon": 69.2623,
    "title": "Тахаратхана в мечети Хастимом",
    "description": "Тахаратхана при соборной мечети Хасти-Имом, рядом с медресе",
    "photo": "",
    "isOpen": true,
    "isFree": true,
    "hasSoap": true,
    "hasPaper": false,
    "isAccessible": false,
    "isTaharatkhana": true,
    "addedBy": "system",
    "createdAt": "2026-07-07T10:04:00.000Z"
  },
  {
    "id": "seed-0006-next-mall",
    "lat": 41.3376,
    "lon": 69.2841,
    "title": "Туалет в ТРЦ Next",
    "description": "Туалет на 2-м этаже торгового центра Next на Юнусабаде",
    "photo": "",
    "isOpen": true,
    "isFree": true,
    "hasSoap": true,
    "hasPaper": true,
    "isAccessible": true,
    "isTaharatkhana": false,
    "addedBy": "system",
    "createdAt": "2026-07-07T10:05:00.000Z"
  },
  {
    "id": "seed-0007-broadway",
    "lat": 41.2983,
    "lon": 69.2717,
    "title": "Туалет на Broadway (пешеходная зона)",
    "description": "Общественный платный туалет на пешеходной улице Сайилгох (Broadway)",
    "photo": "",
    "isOpen": true,
    "isFree": false,
    "hasSoap": true,
    "hasPaper": true,
    "isAccessible": false,
    "isTaharatkhana": false,
    "addedBy": "system",
    "createdAt": "2026-07-07T10:06:00.000Z"
  }
]
